{
  "features": [
    {
      "geometry": {
        "coordinates": [
          -77.0229615932543,
          38.88822357963494
        ],
        "type": "Point"
      },
      "type": "Feature",
      "properties": {
        "name": "Hirshhorn Museum and Sculpture Garden"
      }
    },
    {
      "geometry": {
        "coordinates": [
          -76.97682976256489,
          38.856575890110435
        ],
        "type": "Point"
      },
      "type": "Feature",
      "properties": {
        "name": "Anacostia Community Museum"
      }
    },
    {
      "geometry": {
        "coordinates": [
          -77.01975788954995,
          38.88812765492665
        ],
        "type": "Point"
      },
      "type": "Feature",
      "properties": {
        "name": "National Air and Space Museum"
      }
    },
    {
      "geometry": {
        "coordinates": [
          -77.03270727976185,
          38.891103421909094
        ],
        "type": "Point"
      },
      "type": "Feature",
      "properties": {
        "name": "National Museum of African American History and Culture"
      }
    },
    {
      "geometry": {
        "coordinates": [
          -77.02549143187714,
          38.88798852658266
        ],
        "type": "Point"
      },
      "type": "Feature",
      "properties": {
        "name": "National Museum of African Art"
      }
    },
    {
      "geometry": {
        "coordinates": [
          -77.03001390674564,
          38.89125057803281
        ],
        "type": "Point"
      },
      "type": "Feature",
      "properties": {
        "name": "National Museum of American History"
      }
    },
    {
      "geometry": {
        "coordinates": [
          -77.0264339067458,
          38.88797252658691
        ],
        "type": "Point"
      },
      "type": "Feature",
      "properties": {
        "name": "National Museum of Asian Art"
      }
    },
    {
      "geometry": {
        "coordinates": [
          -77.01674721230407,
          38.88822467551401
        ],
        "type": "Point"
      },
      "type": "Feature",
      "properties": {
        "name": "National Museum of the American Indian"
      }
    },
    {
      "geometry": {
        "coordinates": [
          -77.02602146627063,
          38.89126452600581
        ],
        "type": "Point"
      },
      "type": "Feature",
      "properties": {
        "name": "National Museum of Natural History"
      }
    },
    {
      "geometry": {
        "coordinates": [
          -77.02297536441844,
          38.897859673949995
        ],
        "type": "Point"
      },
      "type": "Feature",
      "properties": {
        "name": "National Portrait Gallery"
      }
    },
    {
      "geometry": {
        "coordinates": [
          -77.00820430489323,
          38.89823841920369
        ],
        "type": "Point"
      },
      "type": "Feature",
      "properties": {
        "name": "National Postal Museum"
      }
    },
    {
      "geometry": {
        "coordinates": [
          -77.03909805886173,
          38.89913576858115
        ],
        "type": "Point"
      },
      "type": "Feature",
      "properties": {
        "name": "Renwick Gallery"
      }
    },
    {
      "geometry": {
        "coordinates": [
          -77.02298970304095,
          38.89820036872797
        ],
        "type": "Point"
      },
      "type": "Feature",
      "properties": {
        "name": "Smithsonian American Art Museum"
      }
    },
    {
      "geometry": {
        "coordinates": [
          -77.02599163558186,
          38.88879582452
        ],
        "type": "Point"
      },
      "type": "Feature",
      "properties": {
        "name": "Smithsonian Institution Building"
      }
    },
    {
      "geometry": {
        "coordinates": [
          -77.04966844641824,
          38.92913405575851
        ],
        "type": "Point"
      },
      "type": "Feature",
      "properties": {
        "name": "National Zoological Park (National Zoo)"
      }
    },
    {
      "geometry": {
        "coordinates": [
          -77.0229286183864,
          38.89284098921843
        ],
        "type": "Point"
      },
      "type": "Feature",
      "properties": {
        "name": "National Archives"
      }
    },
    {
  "geometry": {
    "coordinates": [
      -77.03272303372984,
      38.88665184202878
    ],
    "type": "Point"
  },
  "type": "Feature",
  "properties": {
    "name": "United States Holocaust Memorial Museum"
  }
}
  ],
  "type": "FeatureCollection"
}
